,City,Cloudiness,Country,Date,Humidity,Lat,Lng,Max Temp,Wind Speed
0,Hobart,20,AU,1586215753,66,-42.88,147.33,59.0,13.87
1,Saint-Philippe,4,RE,1586215923,68,-21.36,55.77,75.2,6.93
2,Saint-Médard-en-Jalles,100,FR,1586216096,87,44.9,-0.72,57.2,2.24
3,Butaritari,100,KI,1586215900,70,3.07,172.79,82.85,2.46
4,Rikitea,80,PF,1586215814,65,-23.12,-134.97,76.3,7.23
5,Fort Nelson,75,CA,1586215953,32,58.81,-122.7,41.0,3.36
6,Mazagão,40,BR,1586216097,100,-0.12,-51.29,84.2,9.17
7,Tazovsky,98,RU,1586215909,98,67.47,78.7,24.82,1.59
8,Ribeira Grande,85,PT,1586215899,90,38.52,-28.7,63.39,15.57
9,Punta Arenas,100,CL,1586215773,66,-53.15,-70.92,51.8,12.75
10,Pisco,0,PE,1586215966,30,-13.7,-76.22,73.99,14.99
11,Khandagayty,86,RU,1586216098,66,50.73,92.05,26.55,1.99
12,Twentynine Palms,40,US,1586216098,45,34.14,-116.05,75.2,19.46
13,Dikson,91,RU,1586215973,94,73.51,80.55,1.17,11.39
14,Vaini,75,TO,1586215919,78,-21.2,-175.2,77.0,8.05
15,La Ronge,90,CA,1586215960,86,55.1,-105.28,26.6,6.93
16,Yellowknife,75,CA,1586215702,63,62.46,-114.35,30.2,21.92
17,Beloha,1,MG,1586216099,80,-25.17,45.05,71.38,6.93
18,Albany,20,US,1586215898,19,42.6,-73.97,57.2,18.34
19,Busselton,3,AU,1586215903,38,-33.65,115.33,66.0,16.04
20,Manaure,99,CO,1586216100,73,11.78,-72.44,82.67,20.13
21,Nhulunbuy,40,AU,1586216101,74,-12.23,136.77,84.2,3.36
22,Cape Town,75,ZA,1586215699,54,-33.93,18.42,57.99,5.82
23,Ushuaia,75,AR,1586215895,66,-54.8,-68.3,50.0,21.92
24,Nemuro,2,JP,1586215966,80,43.32,145.57,37.02,10.36
25,Talnakh,90,RU,1586215958,95,69.49,88.4,32.0,17.9
26,Saint George,1,US,1586215893,32,37.1,-113.58,66.99,14.99
27,Numan,72,NG,1586216102,56,9.47,12.03,84.58,7.47
28,Bagnols-sur-Cèze,1,FR,1586216102,70,44.16,4.62,52.0,2.24
29,Port Alfred,49,ZA,1586215943,59,-33.59,26.89,59.83,24.81
30,Thompson,75,CA,1586215809,68,55.74,-97.86,24.8,9.17
31,Halifax,20,CA,1586215896,28,44.65,-63.57,46.99,13.87
32,Mataura,83,NZ,1586216103,79,-46.19,168.86,55.99,11.01
33,San Patricio,40,MX,1586216098,78,19.22,-104.7,82.4,11.41
34,Tuktoyaktuk,90,CA,1586215910,85,69.45,-133.04,24.8,20.8
35,Hasaki,75,JP,1586215953,61,35.73,140.83,54.0,5.82
36,Umluj,0,SA,1586216104,48,25.02,37.27,79.95,3.94
37,Peterhead,24,GB,1586215949,70,57.51,-1.8,42.8,6.93
38,Jamestown,75,US,1586215903,25,42.1,-79.24,53.6,8.05
39,Perth,13,AU,1586215812,45,-31.93,115.83,73.4,20.8
40,Araouane,0,ML,1586216105,12,18.9,-3.53,82.4,8.88
41,Hong Kong,40,HK,1586215913,82,22.29,114.16,64.99,5.82
42,Suez,25,EG,1586215879,67,29.97,32.53,62.08,11.72
43,Lagoa,100,PT,1586216083,95,39.05,-27.98,61.65,18.97
44,Cerro Punta,20,PA,1586216106,74,8.85,-82.57,86.0,12.75
45,Port Lincoln,5,AU,1586216064,69,-34.73,135.87,62.89,8.41
46,Sitka,90,US,1586215968,80,57.05,-135.33,35.6,17.22
47,Lavrentiya,95,RU,1586216009,83,65.58,-171.0,7.45,2.53
48,Priargunsk,0,RU,1586216107,55,50.37,119.1,36.72,13.15
49,Kautokeino,100,NO,1586216107,85,69.01,23.04,31.86,19.06
50,Upernavik,0,GL,1586215908,91,72.79,-56.15,13.84,15.48
51,New Norfolk,20,AU,1586215918,66,-42.78,147.06,59.0,13.87
52,Avarua,75,CK,1586216108,79,-21.21,-159.78,84.2,5.82
53,Dudinka,90,RU,1586216109,98,69.41,86.18,32.0,17.9
54,Normal,90,US,1586216028,68,40.51,-88.99,68.0,10.29
55,Ilulissat,40,GL,1586215956,47,69.22,-51.1,14.0,13.87
56,Saskylakh,100,RU,1586215942,97,71.92,114.08,24.96,6.8
57,Faya,43,SA,1586216059,72,18.39,42.45,64.4,4.21
58,Durrës,75,AL,1586216110,62,41.32,19.44,51.8,1.12
59,Felanitx,100,ES,1586216110,76,39.47,3.15,54.0,3.36
60,Jinxiang,78,CN,1586216110,82,22.86,115.7,65.46,7.78
61,Wajima,75,JP,1586216110,58,37.4,136.9,46.4,6.93
62,Mahébourg,75,MU,1586215994,83,-20.41,57.7,78.8,13.87
63,Padang,85,ID,1586216044,75,-0.95,100.35,76.75,2.68
64,Ambad,14,IN,1586216111,26,19.62,75.8,76.57,4.54
65,Goderich,100,CA,1586215903,34,43.75,-81.72,53.01,2.55
66,Santa Isabel Rio Negro,100,BR,1586216111,95,-0.41,-65.02,77.23,1.86
67,Atuona,5,PF,1586215930,76,-9.8,-139.03,82.56,16.04
68,Castro,90,BR,1586215932,73,-24.79,-50.01,62.33,2.62
69,Senanga,2,ZM,1586216112,57,-16.12,23.27,67.64,2.68
70,Mīnāb,0,IR,1586216112,83,27.15,57.08,73.4,4.7
71,Opuwo,54,NA,1586216008,27,-18.06,13.84,70.9,4.32
72,Portland,40,US,1586216081,39,45.52,-122.68,63.0,3.36
73,Solnechnyy,100,RU,1586216113,92,50.72,136.63,27.1,14.61
74,Coahuayana Viejo,40,MX,1586216005,54,18.73,-103.68,82.4,17.22
75,Carnarvon,6,AU,1586215906,94,-24.87,113.63,69.8,8.05
76,Bluff,73,NZ,1586215948,79,-46.6,168.33,55.99,11.01
77,El Salvador,40,SV,1586216114,66,13.83,-88.92,87.8,8.05
78,Klaksvík,14,FO,1586215912,70,62.23,-6.59,42.8,20.8
79,Qaanaaq,0,GL,1586215901,75,77.48,-69.36,6.96,6.38
80,Hofn,49,IS,1586216008,86,64.25,-15.21,32.34,25.97
81,Chokurdakh,33,RU,1586215993,92,70.63,147.92,1.42,13.6
82,Goundam,0,ML,1586216115,11,16.41,-3.67,83.59,9.95
83,Olafsvik,99,IS,1586215953,94,64.89,-23.71,31.87,32.1
84,Hay River,75,CA,1586216116,91,60.82,-115.8,32.0,14.99
85,Erenhot,30,CN,1586216116,42,43.65,111.98,35.11,21.09
86,Carlsbad,90,US,1586216018,100,33.16,-117.35,62.6,10.29
87,Robertsport,29,LR,1586216008,86,6.75,-11.37,80.8,5.82
88,Bengkulu,96,ID,1586216085,81,-3.8,102.27,77.54,6.2
89,Cidreira,61,BR,1586216026,85,-30.18,-50.21,68.67,10.36
90,Hobyo,48,SO,1586215936,77,5.35,48.53,81.82,11.36
91,San Cristobal,40,VE,1586215931,66,7.77,-72.22,84.2,5.82
92,Khatanga,99,RU,1586215907,96,71.97,102.5,24.28,4.14
93,Ballina,64,AU,1586216117,78,-28.87,153.57,71.6,13.87
94,Evensk,73,RU,1586215951,90,61.95,159.23,17.15,1.48
95,Puerto Ayora,20,EC,1586215941,74,-0.74,-90.35,82.4,14.99
96,Bethel,1,US,1586215934,26,41.37,-73.41,63.0,8.05
97,Pundaguitan,65,PH,1586216118,75,6.37,126.17,81.16,8.01
98,Haines Junction,96,CA,1586216118,78,60.75,-137.51,27.37,4.47
99,Mar del Plata,75,AR,1586215910,81,-38.0,-57.56,57.0,5.82
100,Tiksi,69,RU,1586215947,94,71.69,128.87,10.99,4.25
101,Tamiahua,11,MX,1586216119,81,21.27,-97.45,80.04,9.89
102,Chui,1,UY,1586215919,58,-33.7,-53.46,58.06,16.22
103,Nanortalik,0,GL,1586216021,88,60.14,-45.24,26.82,23.85
104,Raudeberg,99,NO,1586216120,93,61.99,5.14,46.99,11.41
105,Lebu,0,CL,1586215961,66,-37.62,-73.65,54.7,18.34
106,São Filipe,0,CV,1586215929,71,14.9,-24.5,73.4,11.92
107,Cherskiy,100,RU,1586215982,97,68.75,161.3,18.95,15.88
108,Souillac,75,MU,1586216121,83,-20.52,57.52,78.8,13.87
109,Auki,98,SB,1586216121,73,-8.77,160.7,84.29,5.68
110,Grand Gaube,75,MU,1586216121,83,-20.01,57.66,78.8,13.87
111,Luwingu,62,ZM,1586216045,64,-10.26,29.93,61.95,1.61
112,Zhezkazgan,100,KZ,1586216121,51,47.8,67.71,48.85,15.61
113,Kapaa,1,US,1586215765,61,22.08,-159.32,82.4,19.46
114,Shimoda,75,JP,1586216122,58,34.67,138.95,55.4,13.87
115,Lompoc,75,US,1586215888,67,34.64,-120.46,60.01,10.29
116,Kjøllefjord,40,NO,1586216122,79,70.95,27.35,28.4,20.8
117,Anadyr,1,RU,1586215959,64,64.75,177.48,-2.0,2.24
118,Mabaruma,92,GY,1586216123,84,8.2,-59.78,76.91,6.98
119,Bac Lieu,72,VN,1586215835,72,9.29,105.72,81.84,6.64
120,Townsville,40,AU,1586215848,69,-19.25,146.8,82.4,8.05
121,Severo-Kuril'sk,100,RU,1586215972,89,50.68,156.12,34.41,35.03
122,Barcelos,90,PT,1586216124,93,41.54,-8.62,59.0,9.17
123,Ishimbay,44,RU,1586216124,93,53.45,56.04,30.16,16.89
124,Hilo,1,US,1586215955,61,19.73,-155.09,82.4,17.22
125,Soure,100,BR,1586216124,89,-0.72,-48.52,80.46,9.13
126,Salantai,22,LT,1586216124,34,56.07,21.57,50.0,12.75
127,Elwood,90,AU,1586216125,82,-37.88,144.98,60.01,7.16
128,Flinders,40,AU,1586216125,59,-34.58,150.86,64.4,10.29
129,Saldanha,15,ZA,1586215914,87,-33.01,17.94,50.0,1.12
130,Vardø,99,NO,1586215958,96,70.37,31.11,30.69,21.18
131,Poli,40,TZ,1586216126,88,-3.33,36.8,73.4,5.82
132,Xining,100,CN,1586216126,37,36.62,101.77,35.69,3.6
133,Hermanus,55,ZA,1586215915,73,-34.42,19.23,55.99,8.01
134,Clyde River,1,CA,1586215995,78,70.47,-68.59,12.2,34.45
135,Walvis Bay,0,NA,1586216126,87,-22.96,14.51,60.01,9.17
136,Bonthe,40,SL,1586216127,87,7.53,-12.51,81.27,5.79
137,Rockingham,20,US,1586216074,12,42.97,-71.1,57.99,9.17
138,Ondangwa,55,NA,1586216128,83,-17.92,15.95,71.6,1.12
139,Dunedin,93,NZ,1586215858,88,-45.87,170.5,57.0,5.08
140,Sayyan,0,YE,1586216128,23,15.17,44.32,57.49,3.24
141,Lobito,57,AO,1586215874,84,-12.35,13.55,78.04,1.97
142,Bathsheba,40,BB,1586216061,78,13.22,-59.52,80.6,12.75
143,Kletnya,29,RU,1586216128,87,53.39,33.22,36.54,2.53
144,Necochea,10,AR,1586215780,71,-38.55,-58.74,55.0,14.0
145,Marabu,75,MY,1586216129,100,4.41,114.01,77.0,3.36
146,Port Elizabeth,81,ZA,1586215912,58,-33.92,25.57,59.0,18.34
147,Kalengwa,31,ZM,1586216130,66,-13.47,25.0,62.58,1.39
148,Wanning,64,CN,1586216082,90,18.8,110.4,74.88,11.88
149,Takoradze,7,GH,1586216130,85,4.88,-1.76,81.72,5.35
150,Inta,100,RU,1586216130,96,66.03,60.17,16.54,7.45
151,Constitución,0,CL,1586215944,50,-35.33,-72.42,57.09,10.89
152,La Tuque,81,CA,1586216131,88,47.43,-72.78,30.61,7.29
153,East London,76,ZA,1586215918,56,-33.02,27.91,62.73,21.32
154,Bambanglipuro,87,ID,1586216131,80,-7.95,110.28,79.86,2.82
155,Tsimmerbude,0,RU,1586215964,48,54.67,20.13,44.6,6.71
156,Paamiut,41,GL,1586216131,91,61.99,-49.67,19.6,4.85
157,Cabedelo,20,BR,1586216091,88,-6.98,-34.83,80.6,5.82
158,Tasiilaq,100,GL,1586215975,92,65.61,-37.64,28.4,4.7
159,Khojaly District,100,AZ,1586216132,72,39.91,46.79,37.06,6.2
160,Nālūt,7,LY,1586216132,28,30.33,10.85,59.29,9.04
161,Saint Paul Harbor,1,US,1586215967,32,57.79,-152.41,37.4,18.34
162,Belmonte,75,BR,1586216133,69,-15.86,-38.88,80.6,8.05
163,Oranjemund,82,NA,1586216015,82,-28.55,16.43,56.57,4.7
164,Hithadhoo,8,MV,1586215979,67,-0.6,73.08,83.68,5.95
165,Leningradskiy,8,RU,1586215939,82,69.38,178.42,7.77,3.91
166,At-Bashi,20,KG,1586216133,29,41.17,75.81,37.09,5.53
167,Aykhal,82,RU,1586216134,42,66.0,111.5,30.2,8.95
168,Wanaka,95,NZ,1586215911,54,-44.7,169.15,61.57,7.54
169,Sørland,100,NO,1586216001,85,67.67,12.69,41.25,33.46
170,Baykit,2,RU,1586216038,94,61.67,96.37,29.37,2.82
171,Bredasdorp,43,ZA,1586215900,58,-34.53,20.04,55.99,11.41
172,Longyearbyen,75,SJ,1586216089,78,78.22,15.64,14.0,14.99
173,Tanout,0,NE,1586216135,11,14.97,8.89,84.31,8.28
174,Ponta do Sol,20,PT,1586216013,82,32.67,-17.1,66.2,5.82
175,Muli,76,MV,1586216135,65,2.92,73.57,83.98,2.24
176,Hede,0,CN,1586215970,64,33.77,120.25,51.62,6.22
177,Payette,20,US,1586216135,37,44.08,-116.93,66.2,5.82
178,Abu Samrah,90,SY,1586216136,73,35.3,37.18,53.44,7.47
179,Luau,98,AO,1586216136,70,-10.71,22.22,64.99,0.22
180,Nakhon Nayok,91,TH,1586216136,80,14.2,101.21,84.99,5.5
181,Ulladulla,40,AU,1586215906,59,-35.35,150.47,69.01,10.29
182,Itarema,86,BR,1586216137,87,-2.92,-39.92,79.29,6.87
183,Denpasar,20,ID,1586215860,100,-8.65,115.22,77.0,2.24
184,Makakilo City,20,US,1586216017,78,21.35,-158.09,84.2,8.05
185,Bahir Dar,54,ET,1586216137,27,11.59,37.39,71.69,2.51
186,Ust'-Ordynskiy,75,RU,1586216138,92,52.8,104.75,30.2,4.47
187,Isla Mujeres,40,MX,1586215969,70,21.23,-86.73,84.2,12.75
188,Westport,1,US,1586215844,41,41.14,-73.36,64.4,3.36
189,Iqaluit,20,CA,1586215959,65,63.75,-68.51,3.2,20.8
190,Bowen,75,AU,1586216139,65,-20.02,148.23,82.99,12.75
191,Buala,89,SB,1586216139,74,-8.14,159.59,84.92,8.72
192,Folkestone,6,GB,1586216005,100,51.08,1.18,51.01,4.7
193,Yenagoa,81,NG,1586216032,90,4.92,6.26,79.38,2.53
194,Isoka,75,ZM,1586216140,66,-10.16,32.63,62.49,0.78
195,Campo Verde,20,BR,1586216140,69,-20.42,-54.07,80.6,4.7
196,Katsuura,75,JP,1586215987,43,35.13,140.3,55.0,8.05
197,Karacabey,75,TR,1586215845,81,40.22,28.4,46.4,24.16
198,Nome,1,US,1586216038,77,64.5,-165.41,6.8,18.34
199,Mackay,40,AU,1586216141,74,-21.15,149.2,81.0,11.41
200,Mehamn,40,NO,1586215969,79,71.04,27.85,28.4,20.8
201,Tiznit Province,0,MA,1586216141,52,29.58,-9.5,62.94,1.21
202,Acapulco de Juárez,5,MX,1586215744,74,16.86,-99.89,82.4,14.99
203,Vetluzhskiy,0,RU,1586216141,92,58.39,45.47,26.35,6.2
204,Cabo San Lucas,90,MX,1586215785,36,22.89,-109.91,80.6,24.16
205,Te Anau,54,NZ,1586216107,57,-45.42,167.72,56.66,8.1
206,Sand Springs,90,US,1586216142,64,36.14,-96.11,73.4,13.87
207,Dovolnoye,100,RU,1586216142,94,54.5,79.67,35.01,7.18
208,Manggar,80,ID,1586216142,77,-2.88,108.27,80.96,5.41
209,Naze,75,JP,1586215982,72,28.37,129.48,66.2,2.24
210,Bereda,100,ES,1586216143,71,43.27,-7.54,57.99,1.12
211,Utica,1,US,1586215860,29,43.1,-75.23,51.01,12.75
212,Rajanpur,51,PK,1586215870,52,29.1,70.33,71.98,21.5
213,Williams Lake,90,CA,1586216054,26,52.14,-122.14,44.6,3.36
214,Yar-Sale,96,RU,1586215977,97,66.83,70.83,19.29,4.81
215,Los Llanos de Aridane,90,ES,1586215992,73,28.66,-17.92,69.8,3.36
216,Ciudad Bolivar,92,VE,1586216069,53,8.12,-63.55,86.61,13.27
217,Son Tay,75,VN,1586216144,88,21.14,105.5,62.6,4.7
218,Kununurra,40,AU,1586216144,54,-15.77,128.73,82.4,5.82
219,Bloemhof,47,ZA,1586216145,23,-27.65,25.61,57.63,6.26
220,Esperance,90,AU,1586215909,93,-33.87,121.9,59.0,8.05
221,Bayonet Point,40,US,1586216145,54,28.33,-82.68,80.6,5.82
222,Kavieng,42,PG,1586215928,71,-2.57,150.8,83.17,2.39
223,Nikolskoye,96,RU,1586215925,80,59.7,30.79,35.6,2.24
224,Fortuna,40,US,1586215999,66,40.6,-124.16,55.99,17.22
225,Kaeo,30,NZ,1586216146,79,-35.1,173.78,66.99,3.0
226,Pandan,10,PH,1586216146,77,14.05,124.17,79.92,4.36
227,Tyukalinsk,64,RU,1586216074,85,55.87,72.2,39.4,11.92
228,Kindu,99,CD,1586216146,86,-2.95,25.95,70.57,2.64
229,Pangnirtung,20,CA,1586216102,56,66.15,-65.71,12.2,2.24
230,Faanui,20,PF,1586216087,74,-16.48,-151.75,83.68,11.61
231,Chongwe,3,ZM,1586216147,72,-15.33,28.68,68.0,1.12
232,Stodolishche,25,RU,1586216147,85,54.19,32.65,36.18,1.54
233,Harper,23,LR,1586216147,85,4.38,-7.72,81.21,5.03
234,Tiarei,12,PF,1586216148,66,-17.53,-149.33,87.8,6.93
235,Yulara,90,AU,1586215998,37,-25.24,130.99,66.2,12.75
236,Salinas,75,US,1586216148,62,36.68,-121.66,55.4,17.22
237,Prince Rupert,90,CA,1586216065,73,54.32,-130.32,42.8,12.75
238,Norman Wells,40,CA,1586215968,53,65.28,-126.83,26.6,17.22
239,Bara,51,NG,1586216149,54,10.37,10.73,84.51,15.5
240,Liverpool,0,GB,1586216149,75,53.41,-2.98,46.4,4.7
241,Barrow,90,US,1586215914,78,71.29,-156.79,8.6,19.46
242,High Level,75,CA,1586216150,89,58.52,-117.14,32.0,9.17
243,Kupang,20,ID,1586216040,100,-10.17,123.58,78.8,7.74
244,George Town,20,MY,1586215705,94,5.41,100.34,80.6,4.7
245,Mahendranagar,0,NP,1586216151,26,28.92,80.33,70.07,6.02
246,Fomboni,1,KM,1586216151,70,-12.28,43.74,83.19,7.9
247,Kloulklubed,75,PW,1586216014,83,7.04,134.26,80.6,5.82
248,Ipixuna,75,BR,1586216151,94,-1.76,-48.8,78.8,2.24
249,Zhaotong,97,CN,1586216151,46,27.32,103.72,44.01,0.69
250,Along,45,IN,1586215938,58,28.17,94.77,61.3,4.25
251,Barra de Tecoanapa,12,MX,1586216029,58,16.52,-98.75,84.04,9.26
252,Plettenberg Bay,72,ZA,1586216152,67,-34.05,23.37,54.93,17.63
253,Santa Rosa,20,PH,1586216152,74,14.31,121.11,84.0,2.24
254,Qasigiannguit,40,GL,1586216152,47,68.82,-51.19,14.0,13.87
255,Tongchuanshi,100,CN,1586216153,27,35.08,109.09,56.46,2.53
256,Nsanje,2,MW,1586216153,70,-16.92,35.26,74.17,2.86
257,Yekaterinoslavka,100,RU,1586216153,89,50.37,129.11,31.1,12.17
258,Koslan,90,RU,1586216050,94,63.46,48.9,21.96,9.15
259,Gao,0,ML,1586216153,10,16.64,1.64,84.7,11.45
260,Turukhansk,100,RU,1586215916,97,65.82,87.98,32.97,5.44
261,Marsh Harbour,90,BS,1586216113,70,26.54,-77.06,72.03,10.69
262,Kuril'sk,100,RU,1586215928,95,45.23,147.88,32.25,16.93
263,Port Augusta,90,AU,1586215916,88,-32.5,137.77,66.0,5.82
264,Kruisfontein,89,ZA,1586215998,68,-34.0,24.73,52.92,18.25
265,Bubaque,0,GW,1586216058,71,11.28,-15.83,79.09,14.56
266,Stornoway,27,GB,1586216155,87,58.21,-6.39,42.8,16.11
267,Mossamedes,0,AO,1586215988,61,-15.2,12.15,74.03,5.75
268,Malpe,68,IN,1586216155,82,13.35,74.72,80.71,2.84
269,Madang,32,PG,1586216155,68,-5.22,145.8,84.94,2.15
270,Sampang,94,ID,1586216156,81,-7.19,113.24,80.02,3.0
271,Janów Lubelski,0,PL,1586216156,59,50.71,22.41,46.99,3.36
272,Kedrovyy,91,RU,1586216156,79,56.17,91.82,26.6,2.24
273,Marzuq,0,YE,1586216156,30,14.4,46.47,72.03,3.11
274,Ixtapa,40,MX,1586215915,69,20.7,-105.2,80.6,13.87
275,Alta Floresta,96,BR,1586216157,78,-9.88,-56.09,77.74,0.18
276,Verāval,28,IN,1586216157,74,20.9,70.37,73.67,8.19
277,Pedernales,67,DO,1586216157,76,18.04,-71.74,79.25,3.36
278,Mata,58,PT,1586216157,95,40.68,-7.46,54.0,3.38
279,Morondava,6,MG,1586216157,84,-20.28,44.28,76.19,4.34
280,Aksarka,73,RU,1586216158,96,66.56,67.8,14.45,5.3
281,Ahipara,33,NZ,1586216158,63,-35.17,173.17,67.39,7.2
282,Gilgit,99,PK,1586216158,27,35.92,74.31,49.28,0.43
283,La Rioja,90,ES,1586216158,100,42.25,-2.5,51.8,1.12
284,Kamaishi,40,JP,1586216158,56,39.27,141.88,48.2,3.36
285,Vega de Alatorre,15,MX,1586216159,80,20.03,-96.63,81.18,7.2
286,Luanda,20,AO,1586215867,83,-8.84,13.23,80.6,6.93
287,Santa Cruz de la Sierra,40,BO,1586215766,74,-17.8,-63.17,78.8,6.93
288,General Pico,0,AR,1586215963,37,-35.66,-63.76,52.43,5.75
289,Cascais,75,PT,1586215988,100,38.7,-9.42,62.6,5.82
290,Middleton,0,GB,1586216160,75,53.55,-2.2,46.4,3.36
291,Byron Bay,54,AU,1586215983,78,-28.65,153.62,73.99,13.87
292,Kismayo,52,SO,1586216161,75,-0.36,42.55,82.81,11.79
293,Chernyshevskiy,16,RU,1586216161,94,63.01,112.47,24.76,6.98
294,Mahrīz,10,IR,1586216161,25,31.59,54.43,60.8,6.93
295,Kazachinskoye,8,RU,1586216161,94,57.7,93.28,31.71,2.64
296,Ostrovnoy,66,RU,1586215989,93,68.05,39.51,14.02,8.08
297,Bam,36,IR,1586216068,18,29.11,58.36,65.71,3.49
298,Killarney,79,IE,1586216162,84,52.05,-9.52,41.32,3.96
299,Vostok,96,RU,1586216046,72,46.49,135.88,31.42,3.47
300,Northam,1,GB,1586216057,93,51.03,-4.22,42.01,3.62
301,Sovetskiy,0,RU,1586216047,93,61.36,63.58,22.98,9.31
302,Nardaran,90,AZ,1586216163,42,40.56,50.01,48.2,25.28
303,Kinablangan,40,PH,1586216163,66,7.69,126.55,82.31,3.29
304,Agdangan,14,PH,1586216163,84,13.87,121.92,81.0,1.01
305,Lunenburg,2,CA,1586215931,43,44.38,-64.32,46.0,12.71
306,Sorong,78,ID,1586216164,73,-0.88,131.25,83.48,2.8
307,Ottumwa,90,US,1586216164,82,41.02,-92.41,61.0,12.75
308,Gorontalo,73,ID,1586216164,78,0.54,123.06,81.09,2.75
309,Lima,20,PE,1586215759,83,-12.04,-77.03,71.6,8.05
310,Nouakchott,0,MR,1586216162,53,18.09,-15.98,77.0,10.29
311,São João da Barra,4,BR,1586216032,84,-21.64,-41.05,75.31,12.3
312,Partenit,0,UA,1586216165,55,44.58,34.34,45.34,12.68
313,Campbell River,75,CA,1586216165,52,50.02,-125.24,54.0,5.82
314,Guatire,67,VE,1586216165,78,10.48,-66.54,75.76,2.26
315,Llata,65,PE,1586216166,32,-9.42,-76.78,51.31,2.53
316,Karratha,69,AU,1586215933,62,-20.74,116.85,80.11,5.37
317,Lüderitz,4,NA,1586215911,67,-26.65,15.16,60.8,14.99
318,Twin Falls,90,US,1586216166,66,42.56,-114.46,59.0,12.75
319,Houma,90,US,1586216157,73,29.6,-90.72,78.01,11.41
320,Yerbogachën,81,RU,1586216167,92,61.28,108.01,29.28,4.65
321,Shanghai,33,CN,1586216146,81,31.22,121.46,54.0,2.24
322,Dali,0,CN,1586216167,34,25.7,100.18,47.86,2.53
323,Şieuţ,0,RO,1586216167,51,46.98,24.65,36.0,10.29
324,Yeppoon,20,AU,1586216045,64,-23.13,150.73,75.2,10.29
325,Talcahuano,0,CL,1586216168,55,-36.72,-73.12,60.8,12.75
326,Eilat,31,IL,1586215900,46,29.56,34.95,69.8,17.22
327,Beringovskiy,0,RU,1586216168,84,63.05,179.32,7.57,1.16
328,Kaitangata,92,NZ,1586215919,88,-46.28,169.85,57.0,3.24
329,Alice Springs,93,AU,1586216134,48,-23.7,133.88,62.6,3.36
330,Aswān,0,EG,1586216168,26,24.09,32.91,75.13,15.93
331,Port Hardy,75,CA,1586215975,70,50.7,-127.42,46.4,10.29
332,Guerrero Negro,96,MX,1586215896,57,27.98,-114.06,63.75,15.55
333,Tigil',98,RU,1586216169,89,57.8,158.67,26.26,1.61
334,Kollam,40,IN,1586216113,78,8.88,76.6,82.4,2.24
335,Viedma,14,AR,1586215990,49,-40.81,-63.0,50.31,4.03
336,Geraldton,4,AU,1586215920,93,-28.77,114.6,61.0,6.93
337,Biak,90,ID,1586216036,66,-0.91,122.88,81.77,2.04
338,Black River,20,JM,1586215987,78,18.03,-77.85,82.4,11.41
339,Vanimo,99,PG,1586216170,74,-2.67,141.3,82.53,7.27
340,Bridlington,0,GB,1586216170,80,54.08,-0.19,45.0,4.7
341,Aioi,75,JP,1586216170,49,34.8,134.47,55.99,2.24
342,São Paulo de Olivença,100,BR,1586216171,92,-3.38,-68.87,77.79,2.62
343,Menongue,0,AO,1586216171,60,-14.66,17.69,62.01,1.83
344,Kumul,26,CN,1586216171,26,42.8,93.45,53.58,2.55
345,Kasongo-Lunda,35,CD,1586216171,76,-6.47,16.82,71.4,1.28
346,Ngunguru,73,NZ,1586216172,70,-35.62,174.5,66.99,7.0
347,Sibolga,57,ID,1586216040,79,1.74,98.78,75.45,3.15
348,Laguna,90,US,1586216013,71,38.42,-121.42,57.99,3.36
349,Sisophon,80,KH,1586216172,76,13.59,102.97,81.43,6.49
350,Amargosa,43,BR,1586216173,85,-13.03,-39.6,71.69,5.91
351,Adrar,0,MR,1586216011,15,20.5,-10.07,78.26,11.01
352,Banda Aceh,80,ID,1586216173,80,5.56,95.32,78.76,5.19
353,İzmit,75,TR,1586216173,81,40.77,29.92,48.99,4.7
354,Schruns,5,AT,1586216174,64,47.07,9.95,46.99,3.36
355,Conceição da Barra,21,BR,1586216174,79,-18.59,-39.73,76.41,8.14
356,Cody,90,US,1586216174,33,44.53,-109.06,60.01,19.46
357,Farafangana,53,MG,1586216175,87,-22.82,47.83,72.72,3.96
358,Acaraú,90,BR,1586216175,88,-2.89,-40.12,78.82,6.31
359,Bandar-e Lengeh,0,IR,1586216175,65,26.56,54.88,76.21,1.9
360,Shymkent,90,KZ,1586216126,81,42.3,69.6,53.6,6.71
361,Provideniya,44,RU,1586215937,60,64.38,-173.3,8.6,2.24
362,Torbay,90,CA,1586215830,80,47.67,-52.73,32.0,12.75
363,Whitehorse,75,CA,1586216176,34,60.72,-135.05,35.6,19.46
364,Rawson,0,AR,1586215976,42,-43.3,-65.1,54.64,11.86
365,Hamilton,75,US,1586215824,63,39.18,-84.53,69.01,3.36
366,Camacupa,2,AO,1586216177,63,-12.02,17.48,61.66,2.64
367,Grindavik,75,IS,1586216177,88,63.84,-22.43,32.0,28.86
368,Fairbanks,90,US,1586215832,85,64.84,-147.72,17.01,13.87
369,Palauig,9,PH,1586216177,57,15.44,119.9,83.89,1.39
370,Omboué,100,GA,1586216178,85,-1.57,9.26,76.32,6.22
371,Talara,17,PE,1586216178,71,-4.58,-81.27,76.55,10.36
372,Pinawa,66,CA,1586216178,74,50.15,-95.88,45.97,8.7
373,Yārāda,14,IN,1586216178,81,17.65,83.27,80.58,7.61
374,Chengzhong,70,CN,1586216116,82,30.95,113.55,55.4,2.24
375,Arraial do Cabo,11,BR,1586215926,78,-22.97,-42.03,77.0,11.41
376,Barranca,24,PE,1586216179,73,-10.75,-77.77,74.46,7.78
377,Leh,84,IN,1586216046,30,34.17,77.58,15.58,4.16
378,Lorengau,97,PG,1586216058,76,-2.02,147.27,83.03,5.91
379,Philadelphia,20,US,1586216058,18,39.95,-75.16,64.4,12.75
380,Rosita,15,NI,1586216180,66,13.93,-84.4,79.66,2.62
381,Sinnamary,38,GF,1586216180,83,5.38,-52.95,79.83,14.76
382,Bukoba,40,TZ,1586216181,94,-1.33,31.81,68.0,6.33
383,Ubari,0,LY,1586216181,24,26.59,12.78,64.27,10.85
384,Pevek,94,RU,1586215938,86,69.7,170.31,1.33,16.31
385,Airai,17,TL,1586216063,60,-8.93,125.41,67.93,2.77
386,Scottsbluff,1,US,1586216182,11,41.87,-103.67,75.99,12.75
387,Kamenka,2,RU,1586216049,58,51.32,42.77,26.01,10.18
388,Kahului,40,US,1586215909,54,20.89,-156.47,84.2,11.41
389,Bonnyville,5,CA,1586216105,58,54.27,-110.73,30.2,11.41
390,Santarém,20,BR,1586216183,88,-2.44,-54.71,80.6,3.36
391,Sakakah,81,SA,1586216183,21,29.97,40.21,71.6,4.7
392,Porto-Novo,20,BJ,1586216183,83,6.5,2.6,80.6,3.36
393,Chicama,20,PE,1586216183,67,-7.84,-79.15,76.03,7.45
394,Khorramabad,85,IR,1586216184,40,33.49,48.36,56.98,3.89
395,Cayenne,40,GF,1586215768,83,4.93,-52.33,80.6,8.05
396,Mnogovershinnyy,100,RU,1586216184,95,53.94,139.92,22.08,10.29
397,Tuatapere,46,NZ,1586215934,79,-46.13,167.68,55.99,11.01
398,Merke,36,KZ,1586216185,46,42.87,73.18,51.08,4.5
399,Sakaiminato,75,JP,1586216185,75,35.55,133.23,46.4,5.82
400,Outjo,27,NA,1586216001,72,-20.12,16.15,62.6,1.12
401,Tinskoy,0,RU,1586216185,81,56.15,96.92,33.49,3.78
402,Nhamundá,100,BR,1586216186,90,-2.19,-56.71,79.25,1.92
403,Sokoni,20,TZ,1586216186,88,-6.43,39.55,80.6,7.29
404,Luganville,100,VU,1586216186,81,-15.53,167.17,82.24,18.95
405,Gashua,78,NG,1586216186,16,12.87,11.05,83.77,3.49
406,Half Moon Bay,40,US,1586215970,87,37.46,-122.43,52.0,6.17
407,Sulangan,15,PH,1586216186,71,11.14,123.72,80.8,2.48
408,Kigoma,40,TZ,1586216187,94,-4.88,29.63,71.6,2.48
409,Kualakapuas,75,ID,1586216187,87,-3.01,114.39,77.97,1.83
410,Varhaug,75,NO,1586216188,93,58.61,5.65,46.0,5.82
411,Massarosa,0,IT,1586216188,66,43.87,10.34,53.01,2.24
412,San Vicente,63,AR,1586216188,84,-26.62,-54.13,62.11,4.99
413,Prainha,99,BR,1586216188,86,-1.8,-53.48,78.89,3.96
414,Nara,77,JP,1586215925,38,34.69,135.8,50.0,1.12
415,Posadas,20,AR,1586216189,73,-27.37,-55.9,73.4,6.93
416,Enshi,71,CN,1586216189,58,30.3,109.48,58.15,0.22
417,City of San Pedro,20,PH,1586216189,74,14.35,121.02,84.0,2.24
418,Ponta Delgada,75,PT,1586216189,100,37.73,-25.67,62.6,9.17
419,Río Gallegos,75,AR,1586216189,33,-51.62,-69.22,57.2,13.87
420,Honningsvåg,40,NO,1586216190,79,70.98,25.97,28.4,20.8
421,Nioro,0,GM,1586216190,24,13.35,-15.75,81.52,8.66
422,Namatanai,71,PG,1586216190,70,-3.67,152.43,83.7,7.63
423,Oktyabr'skiy,0,RU,1586216190,88,54.48,53.47,29.59,12.12
424,De-Kastri,99,RU,1586216190,94,51.47,140.78,32.22,16.6
425,Qaqortoq,5,GL,1586216191,49,60.72,-46.03,24.8,2.24
426,Bud,90,US,1586216191,59,39.45,-86.18,70.0,3.36
427,Augusto Corrêa,100,BR,1586216191,93,-1.02,-46.63,78.76,5.1
428,Tamale,83,GH,1586216192,47,9.4,-0.84,89.22,14.29
429,Poso,100,ID,1586216192,71,-1.4,120.75,79.56,2.15
430,Sri Aman,100,MY,1586216192,100,1.24,111.46,75.2,1.61
431,Caravelas,17,BR,1586215985,77,-17.71,-39.25,77.27,8.23
432,Letterkenny,49,IE,1586216192,88,54.95,-7.73,38.37,4.9
433,Coyhaique,75,CL,1586215966,66,-45.58,-72.07,48.2,5.79
434,Kawalu,37,ID,1586216193,77,-7.38,108.21,75.27,1.66
435,Roebourne,66,AU,1586216193,61,-20.78,117.13,80.1,5.73
436,Taltal,9,CL,1586216017,72,-25.4,-70.48,66.45,3.58
437,Sharan,0,RU,1586216194,89,54.82,54.0,29.68,11.39
438,Barra do Garças,48,BR,1586216008,67,-15.89,-52.26,79.2,1.41
439,San Jose,75,US,1586216194,71,37.34,-121.89,53.6,4.7
440,Caconda,1,AO,1586216195,60,-13.73,15.07,59.27,1.32
441,Deputatsky,60,RU,1586215983,90,69.3,139.9,14.49,12.86
442,Kiryat Gat,40,IL,1586216195,82,31.61,34.76,62.01,3.36
443,Atbasar,100,KZ,1586216195,74,51.8,68.33,41.83,14.85
444,Dokri,53,PK,1586216196,27,27.37,68.1,78.15,7.56
445,Ugoofaaru,13,MV,1586216196,59,5.67,73.0,84.58,1.86
446,Susanville,1,US,1586215983,49,40.42,-120.65,48.2,5.82
447,Tautira,17,PF,1586216197,66,-17.73,-149.15,87.8,6.93
448,Ringebu,99,NO,1586216197,82,61.52,10.17,37.0,1.99
449,Hornepayne,57,CA,1586216197,77,49.21,-84.77,34.79,3.51
450,Eureka,1,US,1586215994,66,40.8,-124.16,55.99,18.34
451,Broome,1,US,1586215954,29,42.25,-75.83,55.0,6.93
452,Rāwah,87,IQ,1586216198,43,34.48,41.91,66.36,11.48
453,Idenao,20,CM,1586216198,100,4.25,9.0,78.8,3.36
454,San Juan,39,AR,1586215997,26,-31.54,-68.54,65.62,7.25
455,Lázaro Cárdenas,0,MX,1586216003,65,17.96,-102.2,80.67,8.19
456,Mayo,1,US,1586216199,54,38.89,-76.51,66.99,3.36
457,Guarujá,42,BR,1586216061,54,-23.99,-46.26,78.8,2.24
458,Diamantino,77,BR,1586216199,79,-14.41,-56.45,78.3,2.66
459,Mitú,100,CO,1586216100,91,1.2,-70.17,75.07,2.82
460,Sobolevo,1,RU,1586216200,82,54.43,31.9,36.93,1.52
461,La Santisima Trinidad,40,BO,1586216023,70,-14.83,-64.9,89.6,2.26
462,Bull Savanna,17,JM,1586216200,78,17.89,-77.59,76.17,3.04
463,Okha,99,RU,1586216037,95,53.57,142.95,30.47,19.55
464,Panguna,74,PG,1586216200,55,-6.32,155.48,79.65,2.95
465,Zyryanka,26,RU,1586216201,90,65.75,150.85,20.32,9.17
466,Andenes,100,NO,1586216096,74,69.31,16.12,37.4,18.34
467,Sola,100,VU,1586216201,79,-13.88,167.55,83.52,23.62
468,Manicoré,98,BR,1586216097,95,-5.81,-61.3,76.69,1.12
469,Bystryy Istok,86,RU,1586216202,87,52.37,84.39,41.16,4.97
470,Kenai,1,US,1586215676,39,60.55,-151.26,28.99,16.11
471,Mount Isa,100,AU,1586216202,27,-20.73,139.5,75.2,10.29
472,Port Blair,87,IN,1586215690,75,11.67,92.75,81.36,5.48
473,Kuřim,0,CZ,1586216202,39,49.3,16.53,48.0,8.05
474,Oroville,90,US,1586215964,44,39.51,-121.56,64.0,6.93
475,Collie,0,AU,1586216203,38,-33.37,116.15,66.0,11.32
476,Vestmannaeyjar,100,IS,1586216203,77,63.44,-20.27,35.89,33.76
477,Mandalgovi,67,MN,1586216203,40,45.76,106.27,32.92,22.1
478,Kholm,84,RU,1586216203,85,59.27,32.85,32.95,6.46
479,Alofi,99,NU,1586215941,75,-19.06,-169.92,81.27,8.05
480,Petauke,45,ZM,1586216204,62,-14.24,31.33,64.49,1.21
481,Sistranda,75,NO,1586216080,87,63.73,8.83,46.99,4.7
482,Vila Velha,75,BR,1586215825,78,-20.33,-40.29,78.8,9.17
483,Nyakabindi,67,TZ,1586216204,63,-2.63,33.98,63.21,2.55
484,Tomatlán,40,MX,1586216205,51,19.93,-105.25,80.42,7.52
485,Örnsköldsvik,83,SE,1586216205,74,63.29,18.72,35.6,4.7
486,Lokosovo,97,RU,1586216205,93,61.13,74.82,34.38,11.36
487,Berdigestyakh,91,RU,1586216205,91,62.1,126.7,32.04,3.2
488,Ajdabiya,1,LY,1586216205,75,30.76,20.23,57.97,8.08
489,Jiuquan,38,CN,1586216206,23,39.74,98.52,47.61,4.14
490,Bilma,0,NE,1586216019,12,18.69,12.92,84.06,10.4
491,Petropavl,96,KZ,1586216206,85,54.88,69.16,42.33,13.98
492,Baruun-Urt,0,MN,1586216206,43,46.68,113.28,32.31,2.86
493,Majene,96,ID,1586216206,73,-3.54,118.97,82.2,3.76
494,Muhafazat Lahij,0,YE,1586216207,46,13.17,44.58,76.66,4.9
495,Sambava,3,MG,1586216207,86,-14.27,50.17,74.82,6.38
496,Skibbereen,20,IE,1586216207,86,51.55,-9.27,41.0,4.7
497,Berlevåg,40,NO,1586216079,79,70.86,29.09,28.4,20.8
498,Jos,71,NG,1586216208,78,9.92,8.9,73.4,5.82
499,Moree,70,AU,1586216139,64,-29.47,149.85,68.0,11.41
500,Salinópolis,100,BR,1586216208,86,-0.61,-47.36,81.82,12.86
501,Kalmunai,55,LK,1586215925,77,7.42,81.82,79.36,1.68
502,Hearst,75,CA,1586216209,90,49.68,-83.67,31.33,3.24
503,Gander,90,CA,1586216209,96,48.97,-54.59,32.0,16.11
504,Rantepao,99,ID,1586216209,64,-2.97,119.9,73.63,1.32
505,Moroni,13,KM,1586216209,67,-11.7,43.26,82.85,5.28
506,Bijāwar,0,IN,1586216210,19,24.63,79.5,76.51,4.59
507,Merrill,90,US,1586216210,37,45.18,-89.68,55.4,8.05
508,Southbridge,1,US,1586216079,22,42.08,-72.03,59.0,12.75
509,Bethanien,58,NA,1586216210,56,-26.5,17.16,54.09,5.39
510,Taoudenni,0,ML,1586215956,14,22.68,-3.98,82.0,16.42
511,Sarmanovo,25,RU,1586216210,86,55.26,52.59,26.6,15.66
512,Port-Cartier,75,CA,1586216211,52,50.03,-66.87,41.0,12.75
513,Harrison,1,US,1586216211,69,30.41,-89.04,75.2,8.05
514,Labuhan,100,ID,1586216212,83,-6.88,112.21,79.57,4.27
515,Yokadouma,93,CM,1586216212,83,3.52,15.05,68.23,1.99
516,Pochutla,5,MX,1586215956,49,15.74,-96.47,89.6,11.41
517,Seredka,21,RU,1586216212,92,58.16,28.19,30.2,2.24
518,Bojnourd,90,IR,1586216213,81,37.47,57.33,48.2,6.93
519,Yaan,54,NG,1586216213,70,7.38,8.57,82.31,11.25
520,Nanchang,7,CN,1586216148,67,28.68,115.88,59.52,0.6
521,Port Hedland,90,AU,1586216214,94,-20.32,118.57,75.2,5.82
522,São Joaquim,100,BR,1586216214,71,-28.29,-49.93,55.71,3.56
523,Mahanje,70,TZ,1586216214,71,-9.93,35.33,64.08,1.61
524,Havøysund,96,NO,1586216214,86,71.0,24.66,33.8,19.46
525,Xai-Xai,0,MZ,1586216215,53,-25.05,33.64,73.96,10.6
526,Guarapari,75,BR,1586215989,78,-20.67,-40.5,78.8,9.17
527,Muravlenko,100,RU,1586216216,95,63.79,74.52,32.09,13.87
528,Pavlovsk,71,RU,1586216216,76,50.46,40.11,33.76,6.22
529,Nizwá,0,OM,1586216216,17,22.93,57.53,77.18,3.87
530,Ýpsonas,99,CY,1586216216,82,34.69,32.96,57.2,4.7
531,Burnie,9,AU,1586215923,61,-41.07,145.92,55.0,10.0
532,Erzin,40,TR,1586216217,100,36.96,36.2,61.0,13.87
533,Arrecife,20,ES,1586216217,77,28.96,-13.55,68.0,9.17
534,Pinotepa Nacional,0,MX,1586216217,44,16.32,-98.02,85.82,6.22
535,Christiana,46,ZA,1586216217,28,-27.91,25.16,57.6,8.28
536,San Quintín,1,MX,1586216093,59,30.48,-115.95,62.53,10.42
537,Sawtell,90,AU,1586216218,88,-30.38,153.1,66.2,11.41
538,Kurunegala,41,LK,1586216218,88,7.49,80.36,74.79,2.28
539,Abhā,29,SA,1586216218,72,18.22,42.51,64.4,2.98
540,Knysna,63,ZA,1586216218,66,-34.04,23.05,51.8,13.87
541,Ambulu,99,ID,1586216219,76,-8.35,113.61,79.97,2.66
542,Fereydūnkenār,90,IR,1586216219,100,36.69,52.52,53.6,4.7
543,Tema,40,GH,1586216219,78,5.67,-0.02,80.6,8.05
544,Ambilobe,9,MG,1586216219,88,-13.2,49.05,72.97,2.77
545,Dzaoudzi,20,YT,1586216219,83,-12.79,45.27,80.6,4.7
546,Beruwala,54,LK,1586216220,85,6.48,79.98,78.49,3.22
547,Port Macquarie,90,AU,1586216001,93,-31.43,152.92,68.0,4.7
548,Ust-Kuyga,31,RU,1586216220,92,70.02,135.6,16.75,7.76
549,Rameshki,0,RU,1586216220,91,57.34,36.05,27.88,3.31
550,Copiapó,20,CL,1586215977,82,-27.37,-70.33,62.6,10.29
551,Opunake,66,NZ,1586216220,80,-39.46,173.86,64.0,8.01
552,Linxia Chengguanzhen,100,CN,1586216221,45,35.6,103.21,37.85,4.76
553,Pringsewu,100,ID,1586216221,86,-5.36,104.97,75.7,1.88
554,Areosa,90,PT,1586216221,93,41.72,-8.86,60.01,9.17
555,Shunyi,53,CN,1586216221,32,40.12,116.65,59.0,2.24
556,Mezen',92,RU,1586216222,97,65.85,44.24,18.34,5.46
557,Zastron,47,ZA,1586216222,30,-30.3,27.08,48.78,5.1
558,Touros,20,BR,1586215918,83,-5.2,-35.46,82.4,8.05
559,San Juan Bautista,28,PE,1586216222,30,-14.01,-75.74,73.99,14.99
560,Brodnica,0,PL,1586216222,71,53.26,19.4,51.01,1.01
561,Kortkeros,53,RU,1586216223,53,61.81,51.58,26.6,8.95
562,Maţāy,19,EG,1586216094,55,28.42,30.78,63.45,17.13
563,Jūrmala,17,LV,1586216223,52,56.97,23.77,42.8,5.82
564,Narsaq,9,GL,1586215900,49,60.92,-46.05,24.8,2.24
565,Nouadhibou,0,MR,1586216019,68,20.93,-17.03,71.6,20.8
566,Itacarambi,94,BR,1586216224,77,-15.1,-44.09,74.77,1.59
567,Taseyevo,0,RU,1586216224,90,57.22,94.9,31.73,2.01
568,Asău,0,RO,1586216090,51,46.43,26.4,37.4,4.7
569,Antofagasta,34,CL,1586216224,77,-23.65,-70.4,66.2,9.17
570,Petra,25,JO,1586216225,38,30.32,35.48,54.77,2.68
571,Urengoy,100,RU,1586216225,96,65.97,78.37,31.41,5.46
572,Armeniş,0,RO,1586216225,59,45.2,22.32,38.16,6.67
573,Vila Franca do Campo,75,PT,1586215992,100,37.72,-25.43,62.6,9.17
574,Shubarshi,77,KZ,1586216225,83,48.59,57.19,32.47,17.43
575,Novyye Gorki,0,RU,1586216226,87,56.73,41.06,27.54,5.39
576,Roald,100,NO,1586216094,87,62.58,6.13,46.4,13.87
577,Znamenskoye,48,RU,1586216226,86,57.13,73.83,35.85,9.57
578,Prado,7,BR,1586215984,78,-17.34,-39.22,76.87,7.23
579,York,20,US,1586215975,29,40.13,-77.0,64.4,3.36
580,Omsukchan,34,RU,1586216227,86,62.53,155.8,18.27,3.94
581,Meadow Lake,1,US,1586216227,8,34.8,-106.54,75.0,13.87
582,Gazojak,79,TM,1586216227,63,41.19,61.4,53.76,21.61
583,Calmar,75,CA,1586216127,63,53.27,-113.82,34.0,11.41
584,Moindou,20,NC,1586215974,61,-21.69,165.68,82.4,16.11
585,La Palma,90,US,1586216203,63,33.85,-118.05,64.4,5.82
586,Develi,75,TR,1586216228,80,38.39,35.49,41.0,9.17
587,Pran Buri,20,TH,1586216229,69,12.38,99.91,82.4,4.7
588,Birjand,55,IR,1586216229,65,32.87,59.22,41.0,4.7
589,Novochernorechenskiy,80,RU,1586216229,86,56.27,91.08,35.85,5.79
590,Stokmarknes,100,NO,1586216229,69,68.56,14.91,41.0,18.28
